{
    "markers": [
      {
        "id": 1,
        "locationName": "Jopo de Pojo",
        "info" : "Grootste strip aanbod van noord-holland.",
        "coordinates": {
          "latitude": 52.379300,
          "longitude": 4.636780
        }
      },
      {
        "id": 2,
        "locationName": "Tabletop Kingdom Haarlem",
        "info" : "Winkel met veel aanbod voor tafelspel en kaartspel.",
        "coordinates": {
          "latitude": 52.378960,
          "longitude": 4.636390
        }
      },
      {
        "id": 3,
        "locationName": "De Toyboys",
        "info" : "De Haarlemse winkel voor Marvel, Dc Comics, Star Wars, Turtles, Transformers, Games, Pokemon, Gi Joe, Comics, Collectibles, Actiefiguren en Merchandise!",
        "coordinates": {
          "latitude": 52.378570,
          "longitude": 4.631770
        }
      },
      {
        "id": 4,
        "locationName": "Spellenhuis Haarlem",
        "info" : "In The Boardroom kan je honderden spellen spelen en ondertussen genieten van smakelijke hapjes en lekkere drankjes.",
        "coordinates": {
          "latitude": 52.386510,
          "longitude": 4.636380
        }
      },
      {
        "id": 5,
        "locationName": "Speelgoedwinkel Krokodil",
        "info" : "De betere speelgoedwinkel in Haarlem! Origineel en houten speelgoed van mooi materiaal en ontwerp!",
        "coordinates": {
          "latitude": 52.37915700774712,
          "longitude": 4.633893140861033
        }
      },
      {
        "id": 6,
        "locationName": "De Popshop",
        "info" : "De Popshop is een alternatieve kledingwinkel die sinds 1992 in centrum Haarlem zit in de stijlen Gothic, Metal, Punk, Emo, Game, Rock 'n Roll en Tattoo wear.",
        "coordinates": {
          "latitude": 52.37846403080551,
          "longitude": 4.631349793094277
        }
      }
    ]
  }
  