{
    "markers": [
      {
        "id": 1,
        "name": "Jopo de Pojo",
        "coordinates": {
          "latitude": 52.379300,
          "longitude": 4.636780
        }
      },
      {
        "id": 2,
        "name": "Tabletop Kingdom Haarlem",
        "coordinates": {
          "latitude": 52.378960,
          "longitude": 4.636390
        }
      },
      {
        "id": 3,
        "name": "De Toyboys",
        "coordinates": {
          "latitude": 52.378570,
          "longitude": 4.631770
        }
      },
      {
        "id": 4,
        "name": "Spellenhuis Haarlem",
        "coordinates": {
          "latitude": 52.386510,
          "longitude": 4.636380
        }
      },
      {
        "id": 5,
        "name": "Speelgoedwinkel Krokodil",
        "coordinates": {
          "latitude": 52.37915700774712,
          "longitude": 4.633893140861033
        }
      },
      {
        "id": 6,
        "name": "De Popshop",
        "coordinates": {
          "latitude": 52.37846403080551,
          "longitude": 4.631349793094277
        }
      },
    ]
  }